[
  {
    "OBJECTID": 1,
    "FOLIO": 132190430010,
    "NAME": "Borinquen Health Care Center Main Office",
    "BRANCH": "Main Office",
    "ADDRESS": "3601 N Federal Hwy",
    "UNIT": " ",
    "CITY": "Miami ",
    "ZIPCODE": 33137,
    "PHONE": "305-576-6611",
    "SRVCNOTE": "Main Office",
    "LAT": 25.81099,
    "LON": -80.19057,
    "POINT_X": 922456.521463752,
    "POINT_Y": 537814.35480649,
    "CREATED BY": "ABREUI",
    "CREATED DATE": "5/11/2018 3:22:27 PM",
    "MODIFIED BY": "ABREUI",
    "MODIFIED DATE": "5/11/2018 3:22:27 PM",
    "GlobalID": "364e7f3a-78fc-488e-a069-dd6af084a4aa",
    "x": -8926772.7453,
    "y": 2975690.809
  },
  {
    "OBJECTID": 2,
    "FOLIO": 141030143560,
    "NAME": "Care Resource Community Health Center, Inc",
    "BRANCH": "Litle Havana",
    "ADDRESS": "1901 SW 1st ST",
    "UNIT": null,
    "CITY": "Miami",
    "ZIPCODE": 33135,
    "PHONE": "305-576-1234",
    "SRVCNOTE": "HIV, Pediatrics, Adolescent, OB/GYN,Dental, Labs, Behavioral",
    "LAT": 25.77189,
    "LON": -80.227,
    "POINT_X": 910551.990250077,
    "POINT_Y": 523528.475294575,
    "CREATED BY": "T0140179",
    "CREATED DATE": "6/20/2019 3:05:42 PM",
    "MODIFIED BY": "T0140179",
    "MODIFIED DATE": "6/20/2019 3:43:52 PM",
    "GlobalID": "26322fd0-c500-4fc8-8666-cd6937f16142",
    "x": -8930829.0405,
    "y": 2970855.879
  },
  {
    "OBJECTID": 3,
    "FOLIO": 940250630050,
    "NAME": "Jackson Memorial Hospital ",
    "BRANCH": "Rosie Lee Wesley Health Center",
    "ADDRESS": "6601 SW 62nd Ave",
    "UNIT": " ",
    "CITY": "South Miami",
    "ZIPCODE": 33143,
    "PHONE": "786-466-6900",
    "SRVCNOTE": "Comprehensive Primary Care",
    "LAT": 25.70933,
    "LON": -80.29328,
    "POINT_X": 888864.108248465,
    "POINT_Y": 500670.682707898,
    "CREATED BY": "ABREUI",
    "CREATED DATE": "5/11/2018 3:22:27 PM",
    "MODIFIED BY": "ABREUI",
    "MODIFIED DATE": "5/11/2018 3:22:27 PM",
    "GlobalID": "cda4a1c9-7df4-497a-9da9-3e1aa118bb1d",
    "x": -8938206.2798,
    "y": 2963125.4678
  },
  {
    "OBJECTID": 4,
    "FOLIO": 3049320344090,
    "NAME": "Citrus Health Network",
    "BRANCH": "Citrus Health Center West",
    "ADDRESS": "8765 SW 165th Ave",
    "UNIT": "110-114 ",
    "CITY": "Miami-Dade",
    "ZIPCODE": 33193,
    "PHONE": "786-209-2160",
    "SRVCNOTE": "Psychiatry & Mental Health Services for Adults & Children",
    "LAT": 25.68514,
    "LON": -80.45975,
    "POINT_X": 834083.88701345,
    "POINT_Y": 491619.527243473,
    "CREATED BY": "ABREUI",
    "CREATED DATE": "5/11/2018 3:22:27 PM",
    "MODIFIED BY": "ABREUI",
    "MODIFIED DATE": "5/11/2018 3:22:27 PM",
    "GlobalID": "1f529180-757d-4679-8b8f-37f1e63bc648",
    "x": -8956738.7094,
    "y": 2960136.9189
  },
  {
    "OBJECTID": 5,
    "FOLIO": 3088020010020,
    "NAME": "Community Health of South Dade",
    "BRANCH": "Everglades Health Center",
    "ADDRESS": "19300 SW 376th St",
    "UNIT": " ",
    "CITY": "Miami-Dade",
    "ZIPCODE": 33034,
    "PHONE": "305-246-4607",
    "SRVCNOTE": "Primary Care, Pediatrics, Dental, Laboratory",
    "LAT": 25.41785,
    "LON": -80.50362,
    "POINT_X": 819997.733038746,
    "POINT_Y": 394417.111142486,
    "CREATED BY": "ABREUI",
    "CREATED DATE": "5/11/2018 3:22:27 PM",
    "MODIFIED BY": "T0140179",
    "MODIFIED DATE": "6/18/2019 5:15:00 PM",
    "GlobalID": "bad7ff41-dc2c-4d9a-8fc7-10d024c46fca",
    "x": -8961622.8005,
    "y": 2927156.2809
  },
  {
    "OBJECTID": 6,
    "FOLIO": 3040280610001,
    "NAME": "Jackson Memorial Hospital ",
    "BRANCH": "Colorectal And Minimally invasive Surgery",
    "ADDRESS": "9195 Sunset Drive",
    "UNIT": "Suite. 230",
    "CITY": "Miami",
    "ZIPCODE": 33173,
    "PHONE": "305-271-0300",
    "SRVCNOTE": "Colorectal and Minimally Invasive Surgery Specialists",
    "LAT": 25.70257,
    "LON": -80.34185,
    "POINT_X": 872880.613821328,
    "POINT_Y": 498129.11270757,
    "CREATED BY": "T0140179",
    "CREATED DATE": "6/5/2019 6:07:46 PM",
    "MODIFIED BY": "T0140179",
    "MODIFIED DATE": "6/5/2019 7:42:57 PM",
    "GlobalID": "b12d320c-42c1-45a0-b853-9272300ec54c",
    "x": -8943614.1351,
    "y": 2962289.6276
  },
  {
    "OBJECTID": 7,
    "FOLIO": 232341780001,
    "NAME": "Care Resource Community Health Center, Inc",
    "BRANCH": "Miami Beach",
    "ADDRESS": "1680 Michigan Ave",
    "UNIT": "Suite 912",
    "CITY": "Miami Beach",
    "ZIPCODE": 33139,
    "PHONE": "305-534-0503",
    "SRVCNOTE": "Care Pediatrics, Adults, OB/GYN,Dental, Labs, Behavioral ",
    "LAT": 25.79165,
    "LON": -80.13916,
    "POINT_X": 939413.960085079,
    "POINT_Y": 530889.777501076,
    "CREATED BY": "T0140179",
    "CREATED DATE": "6/20/2019 3:37:38 PM",
    "MODIFIED BY": "T0140179",
    "MODIFIED DATE": "6/21/2019 8:37:16 PM",
    "GlobalID": "1c06ffee-4b0c-4986-8c2a-7a1e80cf3ef2",
    "x": -8921050.5625,
    "y": 2973298.6876
  },
  {
    "OBJECTID": 8,
    "FOLIO": 242030010270,
    "NAME": "Miami Beach Community Health Center",
    "BRANCH": "Stanley C. Myers Center",
    "ADDRESS": "710 Alton Rd",
    "UNIT": " ",
    "CITY": "Miami Beach ",
    "ZIPCODE": 33139,
    "PHONE": "305-538-8835",
    "SRVCNOTE": "Health Center",
    "LAT": 25.77722,
    "LON": -80.14122,
    "POINT_X": 938771.064582944,
    "POINT_Y": 525642.07191515,
    "CREATED BY": "ABREUI",
    "CREATED DATE": "5/11/2018 3:22:27 PM",
    "MODIFIED BY": "ABREUI",
    "MODIFIED DATE": "5/11/2018 3:22:27 PM",
    "GlobalID": "fa549116-2671-4650-a6e9-a149ab2fa4a0",
    "x": -8921279.6233,
    "y": 2971515.2723
  },
  {
    "OBJECTID": 9,
    "FOLIO": 132190110340,
    "NAME": "Care Resource Community Health Center, Inc",
    "BRANCH": "Midtown Miami",
    "ADDRESS": "3801 Biscayne Blvd",
    "UNIT": null,
    "CITY": "Miami",
    "ZIPCODE": 33137,
    "PHONE": "305-576-1234",
    "SRVCNOTE": "Primary Care Pediatric, Adult, OB/GYN, HIV, Behavioral ",
    "LAT": 25.81271,
    "LON": -80.18881,
    "POINT_X": 923029.970871497,
    "POINT_Y": 538443.820791908,
    "CREATED BY": "T0140179",
    "CREATED DATE": "6/20/2019 2:46:29 PM",
    "MODIFIED BY": "T0140179",
    "MODIFIED DATE": "6/20/2019 3:11:20 PM",
    "GlobalID": "1a4052a5-356e-4aab-a27f-3209be550e48",
    "x": -8926577.4058,
    "y": 2975903.7521
  },
  {
    "OBJECTID": 10,
    "FOLIO": 131350030040,
    "NAME": "Jackson Memorial Hospital ",
    "BRANCH": "Ambulatory Care Center (ACC) East",
    "ADDRESS": "1611 NW 12th Ave",
    "UNIT": "116 A",
    "CITY": "Miami",
    "ZIPCODE": 33136,
    "PHONE": "305-585-6000",
    "SRVCNOTE": "Dermatology,Dentistry,Breast Health,Victims:sexual assault ",
    "LAT": 25.79112,
    "LON": -80.21207,
    "POINT_X": 915422.973946411,
    "POINT_Y": 530548.558039159,
    "CREATED BY": "ABREUI",
    "CREATED DATE": "5/11/2018 3:22:27 PM",
    "MODIFIED BY": "E327883",
    "MODIFIED DATE": "5/24/2022 6:48:42 PM",
    "GlobalID": "981f6344-6f36-421b-95d2-37d9810bb98c",
    "x": -8929167.2694,
    "y": 2973233.7139
  },
  {
    "OBJECTID": 11,
    "FOLIO": 430021990010,
    "NAME": "Citrus Health Network",
    "BRANCH": "Citrus Med Primary Care Clinic",
    "ADDRESS": "4125 W 20th Ave",
    "UNIT": "  ",
    "CITY": "Hialeah",
    "ZIPCODE": 33012,
    "PHONE": "305-424-3120",
    "SRVCNOTE": "General & Internal Medicine",
    "LAT": 25.85921,
    "LON": -80.32186,
    "POINT_X": 879169.125194412,
    "POINT_Y": 555094.750088409,
    "CREATED BY": "ABREUI",
    "CREATED DATE": "5/11/2018 3:22:27 PM",
    "MODIFIED BY": "T0140179",
    "MODIFIED DATE": "6/18/2019 2:47:37 PM",
    "GlobalID": "d646eaf1-e165-46a5-94a2-6a4335b2b0aa",
    "x": -8941389.1453,
    "y": 2981654.1636
  },
  {
    "OBJECTID": 12,
    "FOLIO": 3660070240020,
    "NAME": "Banyan Health Systems",
    "BRANCH": "Family Primary Care & Behavioral Health",
    "ADDRESS": "10720 Caribbean Blvd",
    "UNIT": "420",
    "CITY": "Cutler Bay",
    "ZIPCODE": 33189,
    "PHONE": "786-293-9544",
    "SRVCNOTE": "Behavioral Health Outpatient for Children & Families ",
    "LAT": 25.57627,
    "LON": -80.36561,
    "POINT_X": 865277.880398292,
    "POINT_Y": 452186.872941382,
    "CREATED BY": "T0140179",
    "CREATED DATE": "6/19/2019 7:01:05 PM",
    "MODIFIED BY": "T0140179",
    "MODIFIED DATE": "6/19/2019 8:49:12 PM",
    "GlobalID": "d4c68017-42b9-4c3f-adaf-b2ed759e710c",
    "x": -8946258.6922,
    "y": 2946694.3698
  },
  {
    "OBJECTID": 13,
    "FOLIO": 622300070110,
    "NAME": "Borinquen Health Care Center",
    "BRANCH": "Drop-In Education & Access Center",
    "ADDRESS": "12603 NE 7th Ave",
    "UNIT": " ",
    "CITY": "North Miami",
    "ZIPCODE": 33161,
    "PHONE": "786-476-1005",
    "SRVCNOTE": "Primary Health Care, Dental and Behavioral",
    "LAT": 25.89182,
    "LON": -80.18435,
    "POINT_X": 924320.006393485,
    "POINT_Y": 567205.00110586,
    "CREATED BY": "ABREUI",
    "CREATED DATE": "5/11/2018 3:22:27 PM",
    "MODIFIED BY": "ABREUI",
    "MODIFIED DATE": "5/11/2018 3:22:27 PM",
    "GlobalID": "c0c438fe-c72e-45ab-bb1a-e491d14594f2",
    "x": -8926080.5035,
    "y": 2985688.8797
  },
  {
    "OBJECTID": 14,
    "FOLIO": 141370230020,
    "NAME": "Jackson Memorial Hospital ",
    "BRANCH": "Downtown Medical Center",
    "ADDRESS": "111 NW 1st St",
    "UNIT": "Suite 110",
    "CITY": "Miami-Dade",
    "ZIPCODE": 33128,
    "PHONE": "786-466-7200",
    "SRVCNOTE": "Health Clinics Monday to Friday 8 am to 5 pm",
    "LAT": 25.7756,
    "LON": -80.19667,
    "POINT_X": 920525.967677411,
    "POINT_Y": 524938.241503909,
    "CREATED BY": "ABREUI",
    "CREATED DATE": "5/11/2018 3:22:27 PM",
    "MODIFIED BY": "T0140179",
    "MODIFIED DATE": "6/17/2019 7:07:00 PM",
    "GlobalID": "22057393-f3b7-4fd5-a776-b6e7bd3e4a70",
    "x": -8927452.5295,
    "y": 2971315.0423
  },
  {
    "OBJECTID": 15,
    "FOLIO": 3660030010222,
    "NAME": "Jackson Memorial Hospital ",
    "BRANCH": "Jackson Memorial Perdue Medical Center",
    "ADDRESS": "19590 Old Cutler Road",
    "UNIT": null,
    "CITY": "Cutler Bay",
    "ZIPCODE": 33157,
    "PHONE": "786-466-3500",
    "SRVCNOTE": "Long-Term-Care Facility ,163-bed skilled nursing",
    "LAT": 25.58647,
    "LON": -80.32623,
    "POINT_X": 878237.550613996,
    "POINT_Y": 455957.564504907,
    "CREATED BY": "T0140179",
    "CREATED DATE": "6/5/2019 7:22:22 PM",
    "MODIFIED BY": "T0140179",
    "MODIFIED DATE": "6/5/2019 7:39:36 PM",
    "GlobalID": "66096841-ad05-493f-b521-6ef4203ddd87",
    "x": -8941875.7601,
    "y": 2947953.0721
  },
  {
    "OBJECTID": 16,
    "FOLIO": 3530270660001,
    "NAME": "Jackson Memorial Hospital ",
    "BRANCH": "Jackson Heart Surgery Institute",
    "ADDRESS": "3650 NW 82nd Ave",
    "UNIT": "Suite.208",
    "CITY": "Doral",
    "ZIPCODE": 33166,
    "PHONE": "305-585-4564",
    "SRVCNOTE": "Specializes in cardiac and thoracic surgery",
    "LAT": 25.80848,
    "LON": -80.33006,
    "POINT_X": 876568.782626078,
    "POINT_Y": 536642.45300357,
    "CREATED BY": "T0140179",
    "CREATED DATE": "6/5/2019 6:26:13 PM",
    "MODIFIED BY": "T0140179",
    "MODIFIED DATE": "6/5/2019 7:43:08 PM",
    "GlobalID": "c914dd7e-1661-49cc-a2aa-eccb42be7a23",
    "x": -8942301.1817,
    "y": 2975379.8795
  },
  {
    "OBJECTID": 17,
    "FOLIO": 141050370210,
    "NAME": "Banyan Health Systems",
    "BRANCH": "Miami Behavioral Health Center",
    "ADDRESS": "3800 W. Flagler St",
    "UNIT": null,
    "CITY": "Miami",
    "ZIPCODE": 33134,
    "PHONE": "305-774-3600",
    "SRVCNOTE": "Central Facility Detox & Crisis Stabilization Unit",
    "LAT": 25.77155,
    "LON": -80.25746,
    "POINT_X": 900531.612848975,
    "POINT_Y": 523350.488910042,
    "CREATED BY": "T0140179",
    "CREATED DATE": "6/19/2019 6:50:57 PM",
    "MODIFIED BY": "T0140179",
    "MODIFIED DATE": "6/19/2019 8:46:27 PM",
    "GlobalID": "4751ee38-662e-40ca-a628-9451f927ec5d",
    "x": -8934218.7068,
    "y": 2970814.9447
  },
  {
    "OBJECTID": 18,
    "FOLIO": 3022320420010,
    "NAME": "Miami Beach Community Health Center",
    "BRANCH": "Main Office - North Miami Center",
    "ADDRESS": "11645 Biscayne Blvd",
    "UNIT": "103-104",
    "CITY": "Miami-Dade",
    "ZIPCODE": 33181,
    "PHONE": "305-538-8835",
    "SRVCNOTE": "Health Center",
    "LAT": 25.88285,
    "LON": -80.16528,
    "POINT_X": 930610.992126744,
    "POINT_Y": 563984.03513132,
    "CREATED BY": "ABREUI",
    "CREATED DATE": "5/11/2018 3:22:27 PM",
    "MODIFIED BY": "T0140179",
    "MODIFIED DATE": "6/18/2019 7:26:27 PM",
    "GlobalID": "448a7436-9f4a-41b8-91c8-bae89ca2363a",
    "x": -8923957.4474,
    "y": 2984578.9546
  },
  {
    "OBJECTID": 19,
    "FOLIO": 131350000180,
    "NAME": "Jackson Memorial Hospital ",
    "BRANCH": "Ryder Trauma Center",
    "ADDRESS": "1800 NW 10th Ave",
    "UNIT": null,
    "CITY": "Miami",
    "ZIPCODE": 33136,
    "PHONE": "305-585-1152",
    "SRVCNOTE": "Saving the lives of people with critical injuries",
    "LAT": 25.79338,
    "LON": -80.21148,
    "POINT_X": 915613.861359913,
    "POINT_Y": 531371.458296239,
    "CREATED BY": "T0140179",
    "CREATED DATE": "6/17/2019 2:36:25 PM",
    "MODIFIED BY": "T0140179",
    "MODIFIED DATE": "6/17/2019 2:41:39 PM",
    "GlobalID": "b43aed15-6ac0-47e6-9e78-f6c33aca597d",
    "x": -8929101.0259,
    "y": 2973513.2322
  },
  {
    "OBJECTID": 20,
    "FOLIO": 431080011790,
    "NAME": "Jessie Trice Community Health Center",
    "BRANCH": "Hialeah Medical Plaza",
    "ADDRESS": "777 E. 25th St",
    "UNIT": "Suite 316",
    "CITY": "Hialeah",
    "ZIPCODE": 33013,
    "PHONE": "305-691-0470",
    "SRVCNOTE": "Hialeah Women's Health Center",
    "LAT": 25.84545,
    "LON": -80.26715,
    "POINT_X": 897189.290208217,
    "POINT_Y": 550191.236482024,
    "CREATED BY": "ABREUI",
    "CREATED DATE": "5/11/2018 3:22:27 PM",
    "MODIFIED BY": "ABREUI",
    "MODIFIED DATE": "5/11/2018 3:22:27 PM",
    "GlobalID": "5899ca8b-85ab-41fd-975e-97ede7db7162",
    "x": -8935298.6689,
    "y": 2979952.4555
  },
  {
    "OBJECTID": 21,
    "FOLIO": 431180010641,
    "NAME": "Citrus Health Network, Inc",
    "BRANCH": "Citrus Palm Center Clinic",
    "ADDRESS": "60 E 3rd St ",
    "UNIT": "102C",
    "CITY": "Hialeah",
    "ZIPCODE": 33010,
    "PHONE": "786-441-5330",
    "SRVCNOTE": "Family Medicine",
    "LAT": 25.8242,
    "LON": -80.28007,
    "POINT_X": 892985.529820301,
    "POINT_Y": 542444.478330806,
    "CREATED BY": "ABREUI",
    "CREATED DATE": "5/11/2018 3:22:27 PM",
    "MODIFIED BY": "ABREUI",
    "MODIFIED DATE": "5/11/2018 3:22:27 PM",
    "GlobalID": "501a4f04-3ba1-457c-adac-fb9fe3fd600e",
    "x": -8936735.8088,
    "y": 2977324.3534
  },
  {
    "OBJECTID": 22,
    "FOLIO": 3411330010010,
    "NAME": "Jackson Memorial Hospital ",
    "BRANCH": "Community Mental Health Center ",
    "ADDRESS": "20201 NW 37th Ave",
    "UNIT": null,
    "CITY": "Miami Gardens",
    "ZIPCODE": 33056,
    "PHONE": "786-466-2700",
    "SRVCNOTE": "Adm. and Child-Adolescent Outpatient Services",
    "LAT": 25.95835,
    "LON": -80.26058,
    "POINT_X": 899117.999994747,
    "POINT_Y": 591239.99997624,
    "CREATED BY": "T0140179",
    "CREATED DATE": "6/5/2019 8:27:10 PM",
    "MODIFIED BY": "T0140179",
    "MODIFIED DATE": "6/5/2019 8:30:39 PM",
    "GlobalID": "4ef04f9a-a010-4b0c-b0d5-d55d2439c104",
    "x": -8934567.5644,
    "y": 2993924.2913
  },
  {
    "OBJECTID": 23,
    "FOLIO": 141200060140,
    "NAME": "Community Health of South Dade",
    "BRANCH": "Coconut Grove Health Center",
    "ADDRESS": "3831 Grand Ave",
    "UNIT": " ",
    "CITY": "Miami",
    "ZIPCODE": 33133,
    "PHONE": "786-245-2700",
    "SRVCNOTE": "Primary Care, Pediatrics, OB/GYN, Behavioral Health,Lab",
    "LAT": 25.72782,
    "LON": -80.2554,
    "POINT_X": 901294.874906078,
    "POINT_Y": 507456.875219993,
    "CREATED BY": "ABREUI",
    "CREATED DATE": "5/11/2018 3:22:27 PM",
    "MODIFIED BY": "T0140179",
    "MODIFIED DATE": "6/18/2019 5:15:20 PM",
    "GlobalID": "7ec8ce1a-3bcf-4a6f-b1af-16768577d663",
    "x": -8933990.8917,
    "y": 2965409.1687
  },
  {
    "OBJECTID": 24,
    "FOLIO": 3059220280010,
    "NAME": "Jackson Memorial Hospital ",
    "BRANCH": "Country Walk Urgent Care",
    "ADDRESS": "13707 SW 152nd St.",
    "UNIT": null,
    "CITY": "Miami-Dade",
    "ZIPCODE": 33157,
    "PHONE": "305-585-9200",
    "SRVCNOTE": "Care minor illnesses-injuries Monday to Sunday 08 am to 8 pm",
    "LAT": 25.62751,
    "LON": -80.41533,
    "POINT_X": 848804.091764495,
    "POINT_Y": 470735.94866199,
    "CREATED BY": "T0140179",
    "CREATED DATE": "6/17/2019 3:12:21 PM",
    "MODIFIED BY": "T0140179",
    "MODIFIED DATE": "6/17/2019 5:36:20 PM",
    "GlobalID": "46b660d4-ae52-40af-9352-ccdff98fc96c",
    "x": -8951794.3068,
    "y": 2953019.8263
  },
  {
    "OBJECTID": 25,
    "FOLIO": 3031150000240,
    "NAME": "Jessie Trice Community Health Center",
    "BRANCH": "Corporate Office Complex - Dental Health",
    "ADDRESS": "5607 NW 27th Ave",
    "UNIT": "Suite 1-2",
    "CITY": "Miami-Dade",
    "ZIPCODE": 33147,
    "PHONE": "305-805-1700",
    "SRVCNOTE": "Corporate and Dental Health Center",
    "LAT": 25.82634,
    "LON": -80.2406,
    "POINT_X": 905961.334405161,
    "POINT_Y": 543293.700855903,
    "CREATED BY": "T0140179",
    "CREATED DATE": "6/18/2019 7:15:35 PM",
    "MODIFIED BY": "T0140179",
    "MODIFIED DATE": "6/18/2019 7:22:10 PM",
    "GlobalID": "3b51c3e0-359f-4e2a-9522-b801b759809e",
    "x": -8932343.23,
    "y": 2977588.4662
  },
  {
    "OBJECTID": 26,
    "FOLIO": 3530080060010,
    "NAME": "Jackson Memorial Hospital ",
    "BRANCH": "Doral Urgent Care",
    "ADDRESS": "7400 NW 104th Ave",
    "UNIT": null,
    "CITY": "Doral",
    "ZIPCODE": 33178,
    "PHONE": "305-585-9250",
    "SRVCNOTE": "Care minor illnesses-injuries Monday to Sunday 08 am to 8 pm",
    "LAT": 25.84107,
    "LON": -80.36674,
    "POINT_X": 864443.358272564,
    "POINT_Y": 548427.550390467,
    "CREATED BY": "T0140179",
    "CREATED DATE": "6/17/2019 6:02:59 PM",
    "MODIFIED BY": "T0140179",
    "MODIFIED DATE": "6/17/2019 6:09:10 PM",
    "GlobalID": "0251f380-b969-4ce3-9dc6-8b3c4bc47be1",
    "x": -8946384.6805,
    "y": 2979410.1868
  },
  {
    "OBJECTID": 27,
    "FOLIO": 141020061500,
    "NAME": "Banyan Health Systems",
    "BRANCH": "Recovery Center",
    "ADDRESS": "1560 SW 1st St",
    "UNIT": null,
    "CITY": "Miami",
    "ZIPCODE": 33135,
    "PHONE": "305-644-2667",
    "SRVCNOTE": "Recovery Center",
    "LAT": 25.77208,
    "LON": -80.22084,
    "POINT_X": 912577.553155482,
    "POINT_Y": 523610.97821714,
    "CREATED BY": "T0140179",
    "CREATED DATE": "6/19/2019 8:39:30 PM",
    "MODIFIED BY": "T0140179",
    "MODIFIED DATE": "6/19/2019 8:44:40 PM",
    "GlobalID": "4bd143c0-793d-4d45-83c5-2f41ad521ecc",
    "x": -8930143.7456,
    "y": 2970879.8803
  },
  {
    "OBJECTID": 28,
    "FOLIO": 3050210490010,
    "NAME": "Jackson Memorial Hospital ",
    "BRANCH": "Jackson Pharmacy South",
    "ADDRESS": "9333 SW 152nd St",
    "UNIT": "Lobby",
    "CITY": "Miami - Dade ",
    "ZIPCODE": 33157,
    "PHONE": "305-251-2500",
    "SRVCNOTE": "Mon to Fri 08 am to 04 pm. Closed on weekends",
    "LAT": 25.62955,
    "LON": -80.34469,
    "POINT_X": 872078.343444247,
    "POINT_Y": 471586.411199905,
    "CREATED BY": "T0140179",
    "CREATED DATE": "6/17/2019 8:45:58 PM",
    "MODIFIED BY": "E327883",
    "MODIFIED DATE": "5/25/2022 3:04:52 PM",
    "GlobalID": "c5a52e2b-c3db-42d9-a0c5-3d7232765449",
    "x": -8943929.798,
    "y": 2953271.722
  },
  {
    "OBJECTID": 29,
    "FOLIO": 141380030690,
    "NAME": "Jackson Memorial Hospital ",
    "BRANCH": "Dr. Rafael A. Pe\u00a4alver Clinic",
    "ADDRESS": "971 NW 2nd St",
    "UNIT": " ",
    "CITY": "Miami",
    "ZIPCODE": 33128,
    "PHONE": "305-585-2899",
    "SRVCNOTE": "General Medicine, Pediatrics and OB/GYN",
    "LAT": 25.77609,
    "LON": -80.21082,
    "POINT_X": 915868.384800997,
    "POINT_Y": 525088.768761903,
    "CREATED BY": "ABREUI",
    "CREATED DATE": "5/11/2018 3:22:27 PM",
    "MODIFIED BY": "E327883",
    "MODIFIED DATE": "5/25/2022 3:05:41 PM",
    "GlobalID": "4e4c59b6-ef14-456b-b236-6a6734dd9f7e",
    "x": -8929027.6556,
    "y": 2971375.81
  },
  {
    "OBJECTID": 30,
    "FOLIO": 721120080010,
    "NAME": "Jackson Memorial Hospital ",
    "BRANCH": "Jackson North Medical Center",
    "ADDRESS": "160 NW 170th St",
    "UNIT": null,
    "CITY": "North Miami Beach",
    "ZIPCODE": 33169,
    "PHONE": "305-651-1100",
    "SRVCNOTE": "Adult and Pediatric Emergency care, Cardiac, Orthopaedics",
    "LAT": 25.93078,
    "LON": -80.20342,
    "POINT_X": 917962.412437078,
    "POINT_Y": 581327.292439491,
    "CREATED BY": "T0140179",
    "CREATED DATE": "6/5/2019 3:57:01 PM",
    "MODIFIED BY": "T0140179",
    "MODIFIED DATE": "6/5/2019 3:58:51 PM",
    "GlobalID": "d788b4c6-30a6-40da-b67b-855cbed2ac25",
    "x": -8928204.0099,
    "y": 2990510.581
  },
  {
    "OBJECTID": 31,
    "FOLIO": 3031020310010,
    "NAME": "Jessie Trice Community Health Center",
    "BRANCH": "Women's Center",
    "ADDRESS": "1190 NW 95th St",
    "UNIT": "100 -102",
    "CITY": "Miami-Dade",
    "ZIPCODE": 33150,
    "PHONE": "305-696-9400",
    "SRVCNOTE": "Women's Health Center",
    "LAT": 25.85994,
    "LON": -80.21466,
    "POINT_X": 914421.343075663,
    "POINT_Y": 555557.592666656,
    "CREATED BY": "ABREUI",
    "CREATED DATE": "5/11/2018 3:22:27 PM",
    "MODIFIED BY": "E327883",
    "MODIFIED DATE": "5/25/2022 3:12:23 PM",
    "GlobalID": "f8ea2a26-9a3f-4d29-8e87-669197361bff",
    "x": -8929455.5954,
    "y": 2981744.8523
  },
  {
    "OBJECTID": 32,
    "FOLIO": 131270700010,
    "NAME": "Jackson Memorial Hospital ",
    "BRANCH": "Jackson Memorial Long-Term Care Center",
    "ADDRESS": "2500 NW 22nd Ave",
    "UNIT": null,
    "CITY": "Miami",
    "ZIPCODE": 33142,
    "PHONE": "786-466-3000",
    "SRVCNOTE": "JMLTCC is one of two skilled nursing facilities, 180-bed",
    "LAT": 25.79987,
    "LON": -80.23197,
    "POINT_X": 908856.133405577,
    "POINT_Y": 533689.270917825,
    "CREATED BY": "T0140179",
    "CREATED DATE": "6/5/2019 7:06:08 PM",
    "MODIFIED BY": "T0140179",
    "MODIFIED DATE": "6/5/2019 7:42:41 PM",
    "GlobalID": "e6690380-76e4-468b-998a-85d416dcbc45",
    "x": -8931382.6094,
    "y": 2974315.2484
  },
  {
    "OBJECTID": 33,
    "FOLIO": 131350190740,
    "NAME": "Jackson Memorial Hospital ",
    "BRANCH": "Jackson Pediatric Center",
    "ADDRESS": "1477 NW 8th Ave",
    "UNIT": null,
    "CITY": "Miami",
    "ZIPCODE": 33136,
    "PHONE": "305-547-2500",
    "SRVCNOTE": "Children:respiratory treatments,speech and physical therapy ",
    "LAT": 25.78916,
    "LON": -80.20851,
    "POINT_X": 916598.942330297,
    "POINT_Y": 529843.362513155,
    "CREATED BY": "T0140179",
    "CREATED DATE": "6/17/2019 2:12:05 PM",
    "MODIFIED BY": "T0140179",
    "MODIFIED DATE": "6/17/2019 2:18:53 PM",
    "GlobalID": "9de0ff75-feea-4858-91e5-fecddbc38c17",
    "x": -8928770.8788,
    "y": 2972991.4494
  },
  {
    "OBJECTID": 34,
    "FOLIO": 821220250540,
    "NAME": "Jackson Memorial Hospital ",
    "BRANCH": "Community Mental Health Center",
    "ADDRESS": "15055 NW 27th Ave",
    "UNIT": "Unit. 1",
    "CITY": "Opa Locka",
    "ZIPCODE": 33054,
    "PHONE": "786-466-2800",
    "SRVCNOTE": "Adult Outpatient Services and the Crisis Stabilization",
    "LAT": 25.91143,
    "LON": -80.24331,
    "POINT_X": 904893.763705663,
    "POINT_Y": 574216.449377738,
    "CREATED BY": "T0140179",
    "CREATED DATE": "6/14/2019 3:47:57 PM",
    "MODIFIED BY": "T0140179",
    "MODIFIED DATE": "6/14/2019 3:57:36 PM",
    "GlobalID": "66d6e9da-d7e5-484b-839c-ec1daa151031",
    "x": -8932644.1924,
    "y": 2988115.6179
  },
  {
    "OBJECTID": 35,
    "FOLIO": 131130630610,
    "NAME": "Banyan Health Systems",
    "BRANCH": "Residential Dade Chase Center",
    "ADDRESS": "140 NW 59th St",
    "UNIT": null,
    "CITY": "Miami",
    "ZIPCODE": 33127,
    "PHONE": "305-759-8888",
    "SRVCNOTE": "Residential Dade Chase Center",
    "LAT": 25.82929,
    "LON": -80.19845,
    "POINT_X": 919821.936501902,
    "POINT_Y": 544450.260451548,
    "CREATED BY": "T0140179",
    "CREATED DATE": "6/19/2019 7:12:43 PM",
    "MODIFIED BY": "T0140179",
    "MODIFIED DATE": "6/19/2019 7:15:15 PM",
    "GlobalID": "7cfb059a-248f-43b5-852e-6b723171daa4",
    "x": -8927650.4765,
    "y": 2977953.9937
  },
  {
    "OBJECTID": 36,
    "FOLIO": 131130630610,
    "NAME": "Banyan Health Systems",
    "BRANCH": "Residential Reentry Center",
    "ADDRESS": "120 NW 59th St",
    "UNIT": null,
    "CITY": "Miami",
    "ZIPCODE": 33127,
    "PHONE": "305-758-3634",
    "SRVCNOTE": "Residential  Re-entry Center",
    "LAT": 25.8293,
    "LON": -80.19837,
    "POINT_X": 919847.613719162,
    "POINT_Y": 544451.481020659,
    "CREATED BY": "T0140179",
    "CREATED DATE": "6/19/2019 7:29:17 PM",
    "MODIFIED BY": "T0140179",
    "MODIFIED DATE": "6/21/2019 8:36:12 PM",
    "GlobalID": "cbc8e4b6-36c8-488f-b3a5-cf15f78378c4",
    "x": -8927641.7848,
    "y": 2977954.3557
  },
  {
    "OBJECTID": 37,
    "FOLIO": 131360810020,
    "NAME": "Jackson Memorial Hospital ",
    "BRANCH": "Jefferson Reaves, Sr. Health Center",
    "ADDRESS": "1009 NW 5th Ave",
    "UNIT": " ",
    "CITY": "Miami",
    "ZIPCODE": 33136,
    "PHONE": "786-466-4000",
    "SRVCNOTE": "Health Clinic",
    "LAT": 25.78388,
    "LON": -80.20239,
    "POINT_X": 918626.002317246,
    "POINT_Y": 527937.763720073,
    "CREATED BY": "ABREUI",
    "CREATED DATE": "5/11/2018 3:22:27 PM",
    "MODIFIED BY": "E327883",
    "MODIFIED DATE": "5/25/2022 3:06:55 PM",
    "GlobalID": "943d8665-c649-4548-80b9-ce1861617355",
    "x": -8928089.0504,
    "y": 2972339.1381
  },
  {
    "OBJECTID": 38,
    "FOLIO": 3031020310010,
    "NAME": "Jessie Trice Community Health Center",
    "BRANCH": "Health Center at North Shore",
    "ADDRESS": "1190 NW 95th St",
    "UNIT": "Suite 110",
    "CITY": "Miami-Dade",
    "ZIPCODE": 33150,
    "PHONE": "305-835-6980",
    "SRVCNOTE": "Health Center",
    "LAT": 25.85971,
    "LON": -80.21463,
    "POINT_X": 914430.970681079,
    "POINT_Y": 555472.54920157,
    "CREATED BY": "ABREUI",
    "CREATED DATE": "5/11/2018 3:22:27 PM",
    "MODIFIED BY": "E327883",
    "MODIFIED DATE": "5/25/2022 3:16:15 PM",
    "GlobalID": "97b4735a-5b58-493d-913e-318cdc03e055",
    "x": -8929452.5087,
    "y": 2981715.8892
  },
  {
    "OBJECTID": 39,
    "FOLIO": 3421150000010,
    "NAME": "Jackson Memorial Hospital ",
    "BRANCH": "North Dade Urgent Care",
    "ADDRESS": "16555 NW 25th Ave ",
    "UNIT": null,
    "CITY": "Miami Gardens",
    "ZIPCODE": 33054,
    "PHONE": "786-466-1900",
    "SRVCNOTE": "Care minor illnesses-injuries Monday to Friday 08 am to 5 pm",
    "LAT": 25.92504,
    "LON": -80.24101,
    "POINT_X": 905620.041452579,
    "POINT_Y": 579167.691443741,
    "CREATED BY": "T0140179",
    "CREATED DATE": "6/17/2019 6:32:36 PM",
    "MODIFIED BY": "E327883",
    "MODIFIED DATE": "5/25/2022 3:10:05 PM",
    "GlobalID": "633b15b2-d1af-4734-bc6e-32fbd8e59c63",
    "x": -8932388.5368,
    "y": 2989800.116
  },
  {
    "OBJECTID": 40,
    "FOLIO": 3050320610020,
    "NAME": "Community Health of South Dade",
    "BRANCH": "West Perrine Health Center ",
    "ADDRESS": "18255 Homestead Ave",
    "UNIT": " ",
    "CITY": "Miami-Dade",
    "ZIPCODE": 33157,
    "PHONE": "305-234-7676",
    "SRVCNOTE": "Primary Care, Dental, Labs,Free Prescription-Transportation",
    "LAT": 25.59971,
    "LON": -80.35558,
    "POINT_X": 868541.250124745,
    "POINT_Y": 460721.46409782,
    "CREATED BY": "ABREUI",
    "CREATED DATE": "5/11/2018 3:22:27 PM",
    "MODIFIED BY": "T0140179",
    "MODIFIED DATE": "6/18/2019 5:14:56 PM",
    "GlobalID": "e4a6e480-b1f3-4f95-a742-03b1ec251d09",
    "x": -8945142.6511,
    "y": 2949587.2438
  },
  {
    "OBJECTID": 41,
    "FOLIO": 131350030040,
    "NAME": "Jackson Memorial Hospital ",
    "BRANCH": "Jackson Memorial Pharmacy ",
    "ADDRESS": "1611 NW 12th Ave",
    "UNIT": null,
    "CITY": "Miami",
    "ZIPCODE": 33136,
    "PHONE": "305-355-7444",
    "SRVCNOTE": "Mon. - Fri: 8 am to 8 pm  and Sat - Sun: 8 am to 4pm",
    "LAT": 25.79105,
    "LON": -80.21375,
    "POINT_X": 914871.103487231,
    "POINT_Y": 530520.800459504,
    "CREATED BY": "T0140179",
    "CREATED DATE": "6/17/2019 7:35:52 PM",
    "MODIFIED BY": "T0140179",
    "MODIFIED DATE": "6/17/2019 7:41:11 PM",
    "GlobalID": "9dc25ff9-b82e-4ace-984d-5d2215d3b65f",
    "x": -8929354.02080001,
    "y": 2973225.3944
  },
  {
    "OBJECTID": 42,
    "FOLIO": 101070401040,
    "NAME": "Camillus Health Concern",
    "BRANCH": "Camillus Health - Main Clinic",
    "ADDRESS": "336 NW 5th St",
    "UNIT": "Greer Bldg",
    "CITY": "Miami",
    "ZIPCODE": 33128,
    "PHONE": "305-577-4840",
    "SRVCNOTE": "Health Care for Homeless, Shower, Cloth, Food Shelter",
    "LAT": 25.77851,
    "LON": -80.20045,
    "POINT_X": 919275.765492789,
    "POINT_Y": 525987.792235471,
    "CREATED BY": "ABREUI",
    "CREATED DATE": "5/11/2018 3:22:27 PM",
    "MODIFIED BY": "ABREUI",
    "MODIFIED DATE": "5/11/2018 3:22:27 PM",
    "GlobalID": "be145d45-f7e9-40ee-8e4b-3b3b16edc824",
    "x": -8927873.2563,
    "y": 2971674.5841
  },
  {
    "OBJECTID": 43,
    "FOLIO": 131260560040,
    "NAME": "Better Way of Miami, Inc",
    "BRANCH": "Behavioral Health Center Providing",
    "ADDRESS": "800 NW 28th St",
    "UNIT": null,
    "CITY": "Miami",
    "ZIPCODE": 33127,
    "PHONE": "305-634-3409",
    "SRVCNOTE": "Substance use disorders and Mental Health",
    "LAT": 25.80214,
    "LON": -80.20965,
    "POINT_X": 916196.442543827,
    "POINT_Y": 534560.32199724,
    "CREATED BY": "T0140179",
    "CREATED DATE": "6/21/2019 7:27:00 PM",
    "MODIFIED BY": "T0140179",
    "MODIFIED DATE": "6/21/2019 7:32:42 PM",
    "GlobalID": "1c197bd6-5e03-44b7-b198-bc5d4d687c06",
    "x": -8928897.4611,
    "y": 2974596.7752
  },
  {
    "OBJECTID": 44,
    "FOLIO": 131350740010,
    "NAME": "Jackson Memorial Hospital ",
    "BRANCH": "Jackson Pharmacy Specialty Services",
    "ADDRESS": "901 NW 17th St",
    "UNIT": "Suite D",
    "CITY": "Miami",
    "ZIPCODE": 33136,
    "PHONE": "305-585-3996",
    "SRVCNOTE": "Mon to Fri 8 am to 8 pm and Sat 8 am to 4 pm Sunday closed",
    "LAT": 25.79193,
    "LON": -80.21077,
    "POINT_X": 915850.783190604,
    "POINT_Y": 530845.966607437,
    "CREATED BY": "T0140179",
    "CREATED DATE": "6/17/2019 7:57:41 PM",
    "MODIFIED BY": "T0140179",
    "MODIFIED DATE": "6/17/2019 8:01:53 PM",
    "GlobalID": "07c75f78-098a-45c9-8470-ef09740784c0",
    "x": -8929021.9405,
    "y": 2973334.0044
  },
  {
    "OBJECTID": 45,
    "FOLIO": 721120080015,
    "NAME": "Jackson Memorial Hospital ",
    "BRANCH": "Gastric Sleeve,Sports Medicine at J.North",
    "ADDRESS": "100 NW 170th St",
    "UNIT": "Suite. 410",
    "CITY": "North Miami Beach",
    "ZIPCODE": 33169,
    "PHONE": "305-654-6850",
    "SRVCNOTE": "Gastric Sleeve Center for Weight-Loss Surgery",
    "LAT": 25.93063,
    "LON": -80.20251,
    "POINT_X": 918260.375751913,
    "POINT_Y": 581276.797133654,
    "CREATED BY": "T0140179",
    "CREATED DATE": "6/5/2019 6:37:33 PM",
    "MODIFIED BY": "T0140179",
    "MODIFIED DATE": "6/17/2019 2:52:33 PM",
    "GlobalID": "52283c9e-57a8-4994-a5b3-b8cb8290bef7",
    "x": -8928103.1961,
    "y": 2990492.7681
  },
  {
    "OBJECTID": 47,
    "FOLIO": 3660050570010,
    "NAME": "Jackson Memorial Hospital ",
    "BRANCH": "Cutler Bay Urgent Care",
    "ADDRESS": "18910 South Dixie Hwy",
    "UNIT": null,
    "CITY": "Cutler Bay",
    "ZIPCODE": 33157,
    "PHONE": "305-585-9230",
    "SRVCNOTE": "Care minor illnesses-injuries Monday to Sunday 08 am to 8 pm",
    "LAT": 25.59056,
    "LON": -80.35907,
    "POINT_X": 867406.687761329,
    "POINT_Y": 457391.998643905,
    "CREATED BY": "T0140179",
    "CREATED DATE": "6/17/2019 5:21:09 PM",
    "MODIFIED BY": "T0140179",
    "MODIFIED DATE": "6/17/2019 6:07:35 PM",
    "GlobalID": "7a8d4f8e-51da-4ade-95c9-9cc236d80650",
    "x": -8945531.3022,
    "y": 2948458.4101
  },
  {
    "OBJECTID": 48,
    "FOLIO": 242030040080,
    "NAME": "Jackson Memorial Hospital ",
    "BRANCH": "Prevention, Education & Treatment Center",
    "ADDRESS": "615 Collins Ave",
    "UNIT": " ",
    "CITY": "Miami Beach ",
    "ZIPCODE": 33139,
    "PHONE": "305-585-4200",
    "SRVCNOTE": "HIV/AIDS, ",
    "LAT": 25.77589,
    "LON": -80.13241,
    "POINT_X": 941672.562523246,
    "POINT_Y": 525178.374881908,
    "CREATED BY": "ABREUI",
    "CREATED DATE": "5/11/2018 3:22:27 PM",
    "MODIFIED BY": "T0140179",
    "MODIFIED DATE": "6/17/2019 7:12:30 PM",
    "GlobalID": "7baa3699-cf79-40ed-b19c-fefb6a57c89c",
    "x": -8920299.2261,
    "y": 2971351.1055
  },
  {
    "OBJECTID": 49,
    "FOLIO": 131350030040,
    "NAME": "Jackson Memorial Hospital ",
    "BRANCH": "Jackson Rehabilitation Hospital",
    "ADDRESS": "1611 NW 12th Ave",
    "UNIT": null,
    "CITY": "Miami",
    "ZIPCODE": 33136,
    "PHONE": "305-585-7112",
    "SRVCNOTE": "Rehabilitation  care to Adults, Teenagers and Children",
    "LAT": 25.79112,
    "LON": -80.21207,
    "POINT_X": 915422.973946411,
    "POINT_Y": 530548.558039159,
    "CREATED BY": "T0140179",
    "CREATED DATE": "6/5/2019 5:42:47 PM",
    "MODIFIED BY": "T0140179",
    "MODIFIED DATE": "6/5/2019 5:46:22 PM",
    "GlobalID": "38ebf725-0a14-4565-ba1d-deb6be607efe",
    "x": -8929167.2694,
    "y": 2973233.7139
  },
  {
    "OBJECTID": 50,
    "FOLIO": 132300040120,
    "NAME": "Borinquen Medical Center",
    "BRANCH": "Case Management Center",
    "ADDRESS": "3550 Biscayne Blvd",
    "UNIT": "Suite 508",
    "CITY": "Miami",
    "ZIPCODE": 33137,
    "PHONE": "305-576-6611",
    "SRVCNOTE": "HIV, Pediatrics, Adolescent, OB/GYN, Optical, Dental, Labs",
    "LAT": 25.81038,
    "LON": -80.18987,
    "POINT_X": 922686.860279962,
    "POINT_Y": 537592.580726281,
    "CREATED BY": "ABREUI",
    "CREATED DATE": "5/11/2018 3:22:27 PM",
    "MODIFIED BY": "ABREUI",
    "MODIFIED DATE": "5/11/2018 3:22:27 PM",
    "GlobalID": "32994826-a32b-42b0-9604-a7167d353959",
    "x": -8926695.2722,
    "y": 2975614.8798
  },
  {
    "OBJECTID": 51,
    "FOLIO": 131240330430,
    "NAME": "Borinquen Health Care Center Miami",
    "BRANCH": "Wellness & Specialty Care Center",
    "ADDRESS": "100 NE 38th Street",
    "UNIT": "Suite 3",
    "CITY": "Miami ",
    "ZIPCODE": 33137,
    "PHONE": "305-576-1675",
    "SRVCNOTE": "Chronic & Specialty Care Center",
    "LAT": 25.8117,
    "LON": -80.1929,
    "POINT_X": 921688.999927033,
    "POINT_Y": 538067.000182725,
    "CREATED BY": "ABREUI",
    "CREATED DATE": "5/11/2018 3:22:27 PM",
    "MODIFIED BY": "ABREUI",
    "MODIFIED DATE": "5/11/2018 3:22:27 PM",
    "GlobalID": "2fd95cad-ae96-43c6-a5a4-7ecf42908def",
    "x": -8927031.9121,
    "y": 2975778.3626
  },
  {
    "OBJECTID": 52,
    "FOLIO": 430010130570,
    "NAME": "Citrus Health Network",
    "BRANCH": "Citrus Maternal & Child Health Center",
    "ADDRESS": "551 W 51St PL",
    "UNIT": "Suite 407",
    "CITY": "Hialeah",
    "ZIPCODE": 33012,
    "PHONE": "305-817-6560",
    "SRVCNOTE": "Pediatrics & Women's Health",
    "LAT": 25.86926,
    "LON": -80.29377,
    "POINT_X": 888390.775386244,
    "POINT_Y": 558796.136058323,
    "CREATED BY": "ABREUI",
    "CREATED DATE": "5/11/2018 3:22:27 PM",
    "MODIFIED BY": "T0140179",
    "MODIFIED DATE": "6/18/2019 2:08:49 PM",
    "GlobalID": "dd891d01-79ba-496f-8571-cf8e21a38ec2",
    "x": -8938260.9155,
    "y": 2982897.4171
  },
  {
    "OBJECTID": 53,
    "FOLIO": 141050060720,
    "NAME": "Banyan Health Systems",
    "BRANCH": "Primary Care Center & Pediatrics ",
    "ADDRESS": "3733 W. Flagler St",
    "UNIT": null,
    "CITY": "Miami",
    "ZIPCODE": 33134,
    "PHONE": "305-774-3400",
    "SRVCNOTE": "Primary Care Center & Pediatrics ",
    "LAT": 25.77225,
    "LON": -80.25627,
    "POINT_X": 900919.54788227,
    "POINT_Y": 523606.356010489,
    "CREATED BY": "T0140179",
    "CREATED DATE": "6/19/2019 6:44:00 PM",
    "MODIFIED BY": "T0140179",
    "MODIFIED DATE": "6/19/2019 8:45:54 PM",
    "GlobalID": "a00bf94d-ae51-4799-bd1f-dc1b75f9d231",
    "x": -8934087.0019,
    "y": 2970901.2194
  },
  {
    "OBJECTID": 54,
    "FOLIO": 3421080040040,
    "NAME": "Jessie Trice Community Health Center",
    "BRANCH": "Miami Gardens Health Center",
    "ADDRESS": "4692 NW 183rd St",
    "UNIT": " ",
    "CITY": "Miami Gardens",
    "ZIPCODE": 33055,
    "PHONE": "305-694-6270",
    "SRVCNOTE": "Health Center",
    "LAT": 25.93851,
    "LON": -80.27671,
    "POINT_X": 893863.640096661,
    "POINT_Y": 583999.721805908,
    "CREATED BY": "ABREUI",
    "CREATED DATE": "5/11/2018 3:22:27 PM",
    "MODIFIED BY": "E327883",
    "MODIFIED DATE": "5/25/2022 3:22:37 PM",
    "GlobalID": "ea47d26e-7f12-49f5-8416-87981bd31bf8",
    "x": -8936361.1682,
    "y": 2991468.2922
  },
  {
    "OBJECTID": 55,
    "FOLIO": 3031150160480,
    "NAME": "Jessie Trice Community Health Center",
    "BRANCH": "Jesse Trice Center for Community Health",
    "ADDRESS": "5361 NW 22nd Ave",
    "UNIT": " ",
    "CITY": "Miami-Dade",
    "ZIPCODE": 33142,
    "PHONE": "305-637-6400",
    "SRVCNOTE": "OB/GYN, Pediatrics, Family Practices",
    "LAT": 25.82375,
    "LON": -80.2321,
    "POINT_X": 908762.235626999,
    "POINT_Y": 542371.065722741,
    "CREATED BY": "ABREUI",
    "CREATED DATE": "5/11/2018 3:22:27 PM",
    "MODIFIED BY": "ABREUI",
    "MODIFIED DATE": "5/11/2018 3:22:27 PM",
    "GlobalID": "d091ebd3-e26e-42f8-8529-facdaccc1170",
    "x": -8931397.2355,
    "y": 2977269.0139
  },
  {
    "OBJECTID": 56,
    "FOLIO": 131350760010,
    "NAME": "Jackson Memorial Hospital ",
    "BRANCH": "Jackson Pharmacy Behavioral Health",
    "ADDRESS": "1695 NW 9th Ave",
    "UNIT": "1311",
    "CITY": "MIami",
    "ZIPCODE": 33136,
    "PHONE": "305-355-7203",
    "SRVCNOTE": "Mon to Fri 08:45 am to 04:45 pm. Closed on weekends",
    "LAT": 25.79082,
    "LON": -80.20949,
    "POINT_X": 916272.901380412,
    "POINT_Y": 530446.079241492,
    "CREATED BY": "T0140179",
    "CREATED DATE": "6/17/2019 8:09:17 PM",
    "MODIFIED BY": "T0140179",
    "MODIFIED DATE": "6/17/2019 8:36:57 PM",
    "GlobalID": "4761de0d-eb74-4f79-b422-24e01abb221c",
    "x": -8928879.9511,
    "y": 2973197.1238
  },
  {
    "OBJECTID": 57,
    "FOLIO": 232100131520,
    "NAME": "Miami Beach Community Health Center",
    "BRANCH": "Beverly Press Building",
    "ADDRESS": "1221 71st St",
    "UNIT": " ",
    "CITY": "Miami Beach ",
    "ZIPCODE": 33141,
    "PHONE": "305-538-8835",
    "SRVCNOTE": "Health Center",
    "LAT": 25.85469,
    "LON": -80.13202,
    "POINT_X": 941611.765513588,
    "POINT_Y": 553820.757893406,
    "CREATED BY": "ABREUI",
    "CREATED DATE": "5/11/2018 3:22:27 PM",
    "MODIFIED BY": "ABREUI",
    "MODIFIED DATE": "5/11/2018 3:22:27 PM",
    "GlobalID": "b6489155-5c24-4bb5-bb98-05e48a71c2b3",
    "x": -8920255.8729,
    "y": 2981095.5273
  },
  {
    "OBJECTID": 58,
    "FOLIO": 131240330430,
    "NAME": "Borinquen Health Care Center Wellness ",
    "BRANCH": "Behavioral Health Resource Center",
    "ADDRESS": "100 NE 38th Street",
    "UNIT": "Suite 5",
    "CITY": "Miami ",
    "ZIPCODE": 33137,
    "PHONE": "305-576-1599",
    "SRVCNOTE": "HIV, Pediatrics, Adolescent, OB/GYN, Optical, Dental, Labs",
    "LAT": 25.8117,
    "LON": -80.1929,
    "POINT_X": 921688.999927033,
    "POINT_Y": 538067.000182725,
    "CREATED BY": "ABREUI",
    "CREATED DATE": "5/11/2018 3:22:27 PM",
    "MODIFIED BY": "ABREUI",
    "MODIFIED DATE": "5/11/2018 3:22:27 PM",
    "GlobalID": "9bd8ea06-89aa-4b34-9c80-9f7ed1b360a6",
    "x": -8927031.9121,
    "y": 2975778.3626
  },
  {
    "OBJECTID": 59,
    "FOLIO": 3069270000520,
    "NAME": "Community Health of South Dade ",
    "BRANCH": "Naranja Health Center",
    "ADDRESS": "13805 SW 264th St",
    "UNIT": " ",
    "CITY": "Miami-Dade",
    "ZIPCODE": 33032,
    "PHONE": "305-258-6813",
    "SRVCNOTE": "Primary Care, OB/GYN, Dental, Pharmacy, Labs",
    "LAT": 25.52219,
    "LON": -80.41528,
    "POINT_X": 848994.337775078,
    "POINT_Y": 432455.843135737,
    "CREATED BY": "ABREUI",
    "CREATED DATE": "5/11/2018 3:22:27 PM",
    "MODIFIED BY": "E327883",
    "MODIFIED DATE": "5/24/2022 3:35:16 PM",
    "GlobalID": "0fd0ff08-c3fd-47df-b93e-0e30ce6f1fdf",
    "x": -8951787.0114,
    "y": 2940021.4763
  },
  {
    "OBJECTID": 60,
    "FOLIO": 431170000160,
    "NAME": "Jessie Trice Community Health Center",
    "BRANCH": "Flamingo Medical Center",
    "ADDRESS": "901 E 10th Ave",
    "UNIT": "Bay 39",
    "CITY": "Hialeah",
    "ZIPCODE": 33010,
    "PHONE": "305-887-0004",
    "SRVCNOTE": "Health Center ",
    "LAT": 25.83264,
    "LON": -80.2598,
    "POINT_X": 899634.180064745,
    "POINT_Y": 545547.44962924,
    "CREATED BY": "ABREUI",
    "CREATED DATE": "5/11/2018 3:22:27 PM",
    "MODIFIED BY": "T0140179",
    "MODIFIED DATE": "6/18/2019 6:49:07 PM",
    "GlobalID": "40e096b6-3a1b-4694-92f9-70887b57f24a",
    "x": -8934480.0369,
    "y": 2978367.5913
  },
  {
    "OBJECTID": 61,
    "FOLIO": 622290080555,
    "NAME": "Jackson Memorial Hospital ",
    "BRANCH": "Keystone Point Urgent Care",
    "ADDRESS": "13120 Biscayne Blvd",
    "UNIT": null,
    "CITY": "North Miami",
    "ZIPCODE": 33181,
    "PHONE": "305-585-9210",
    "SRVCNOTE": "Care minor illnesses-injuries Monday to Sunday 08 am to 8 pm",
    "LAT": 25.8966,
    "LON": -80.16212,
    "POINT_X": 931615.512427412,
    "POINT_Y": 568989.823676154,
    "CREATED BY": "T0140179",
    "CREATED DATE": "6/17/2019 6:20:36 PM",
    "MODIFIED BY": "T0140179",
    "MODIFIED DATE": "6/17/2019 6:24:00 PM",
    "GlobalID": "ef60e3eb-baba-43a4-8bf7-fa2c7a824434",
    "x": -8923606.5428,
    "y": 2986280.8386
  },
  {
    "OBJECTID": 62,
    "FOLIO": 141061270010,
    "NAME": "Borinquen Health Care Center Flagami",
    "BRANCH": "Flagami",
    "ADDRESS": "5040 NW 7th St",
    "UNIT": "Suite 170",
    "CITY": "Miami",
    "ZIPCODE": 33126,
    "PHONE": "305-438-2346 ",
    "SRVCNOTE": "HIV, Pediatrics, Adolescent, OB/GYN, Optical, Dental, Labs",
    "LAT": 25.77798,
    "LON": -80.27681,
    "POINT_X": 894147.999965388,
    "POINT_Y": 525651.749995157,
    "CREATED BY": "ABREUI",
    "CREATED DATE": "5/11/2018 3:22:27 PM",
    "MODIFIED BY": "ABREUI",
    "MODIFIED DATE": "5/11/2018 3:22:27 PM",
    "GlobalID": "ba0ac7d9-5526-4ffd-a8f2-c5ca9ffa05d5",
    "x": -8936373.6554,
    "y": 2971609.6842
  },
  {
    "OBJECTID": 63,
    "FOLIO": 1079140010040,
    "NAME": "Community Health of South Dade ",
    "BRANCH": "South Dade Health  Center",
    "ADDRESS": "13600 SW 312th St",
    "UNIT": " ",
    "CITY": "Homestead",
    "ZIPCODE": 33033,
    "PHONE": "305-242-6069",
    "SRVCNOTE": "Primary Care, Dental, Free Prescription-Transportation",
    "LAT": 25.47742,
    "LON": -80.41,
    "POINT_X": 850802.70620558,
    "POINT_Y": 416194.439963073,
    "CREATED BY": "ABREUI",
    "CREATED DATE": "5/11/2018 3:22:27 PM",
    "MODIFIED BY": "T0140179",
    "MODIFIED DATE": "6/18/2019 5:14:53 PM",
    "GlobalID": "7d7ba76a-a1e4-47e0-9f68-04d3ce0c40e3",
    "x": -8951200.9276,
    "y": 2934500.5861
  },
  {
    "OBJECTID": 64,
    "FOLIO": 131350030040,
    "NAME": "Jackson Memorial Hospital ",
    "BRANCH": "Ambulatory Care Center (ACC) West",
    "ADDRESS": "1611 NW 12th Ave",
    "UNIT": " ",
    "CITY": "Miami",
    "ZIPCODE": 33136,
    "PHONE": "305-466-6900",
    "SRVCNOTE": "Primary Care, Pediatrics,OB/GYN,Neurology,Cardiology",
    "LAT": 25.79112,
    "LON": -80.21207,
    "POINT_X": 915422.973946411,
    "POINT_Y": 530548.558039159,
    "CREATED BY": "ABREUI",
    "CREATED DATE": "5/11/2018 3:22:27 PM",
    "MODIFIED BY": "T0140179",
    "MODIFIED DATE": "6/17/2019 7:33:54 PM",
    "GlobalID": "3127dc88-34a2-41d6-b235-25b9bb0d4780",
    "x": -8929167.2694,
    "y": 2973233.7139
  },
  {
    "OBJECTID": 65,
    "FOLIO": 3050210490010,
    "NAME": "Jackson Memorial Hospital ",
    "BRANCH": "Gastric Sleeve,The women's C.  at J.South",
    "ADDRESS": "9380 SW 150th St.",
    "UNIT": "200- 250",
    "CITY": "Miami",
    "ZIPCODE": 33176,
    "PHONE": "305-256-5030",
    "SRVCNOTE": "Center for Weight-Loss Surgery,Obstetrics-Gynecology Service",
    "LAT": 25.63038,
    "LON": -80.34459,
    "POINT_X": 872109.223631829,
    "POINT_Y": 471887.178642988,
    "CREATED BY": "T0140179",
    "CREATED DATE": "6/5/2019 6:47:21 PM",
    "MODIFIED BY": "T0140179",
    "MODIFIED DATE": "6/17/2019 2:58:30 PM",
    "GlobalID": "0528546f-19d5-4b7a-aa39-f00c3cd5c6db",
    "x": -8943918.8624,
    "y": 2953373.8411
  },
  {
    "OBJECTID": 66,
    "FOLIO": 3031100730030,
    "NAME": "Jessie Trice Community Health Center",
    "BRANCH": "Frederica Wilson / Juanita Mann",
    "ADDRESS": "2520 NW 75th St",
    "UNIT": " ",
    "CITY": "Miami-Dade",
    "ZIPCODE": 33147,
    "PHONE": "305-637-6400",
    "SRVCNOTE": "Health & Wellness Center",
    "LAT": 25.84254,
    "LON": -80.24007,
    "POINT_X": 906103.722571827,
    "POINT_Y": 549182.223855741,
    "CREATED BY": "ABREUI",
    "CREATED DATE": "5/11/2018 3:22:27 PM",
    "MODIFIED BY": "E327883",
    "MODIFIED DATE": "5/25/2022 3:21:26 PM",
    "GlobalID": "6ac8a223-0f43-43bf-8176-e2527853cdb1",
    "x": -8932283.5283,
    "y": 2979591.8643
  },
  {
    "OBJECTID": 67,
    "FOLIO": 3421150000010,
    "NAME": "Jackson Memorial Hospital ",
    "BRANCH": "Jackson Pharmacy North Dade",
    "ADDRESS": "16555 NW 25th Ave",
    "UNIT": null,
    "CITY": "Miami Gardens",
    "ZIPCODE": 33054,
    "PHONE": "786-466-1735",
    "SRVCNOTE": "Mon to Fri 08:00 am to 04:00 pm. Closed on weekends",
    "LAT": 25.92495,
    "LON": -80.24106,
    "POINT_X": 905604.254738744,
    "POINT_Y": 579136.59012799,
    "CREATED BY": "T0140179",
    "CREATED DATE": "6/17/2019 8:31:40 PM",
    "MODIFIED BY": "T0140179",
    "MODIFIED DATE": "6/17/2019 8:36:47 PM",
    "GlobalID": "c1a27c3d-feda-4d0e-afbb-be3cc75ad9c8",
    "x": -8932393.9445,
    "y": 2989789.5564
  },
  {
    "OBJECTID": 68,
    "FOLIO": 3031020310010,
    "NAME": "Jessie Trice Community Health Center",
    "BRANCH": "Children's Wellness Center",
    "ADDRESS": "1190 NW 95th St",
    "UNIT": "Suite 304",
    "CITY": "Miami-Dade",
    "ZIPCODE": 33150,
    "PHONE": "305-835-6980",
    "SRVCNOTE": "Children's Wellness Center",
    "LAT": 25.86013,
    "LON": -80.21482,
    "POINT_X": 914369.193573661,
    "POINT_Y": 555624.985576488,
    "CREATED BY": "ABREUI",
    "CREATED DATE": "5/11/2018 3:22:27 PM",
    "MODIFIED BY": "T0140179",
    "MODIFIED DATE": "6/18/2019 6:08:28 PM",
    "GlobalID": "c722fe3d-cef1-4e49-9604-a333e0c2ff98",
    "x": -8929473.1112,
    "y": 2981767.8948
  },
  {
    "OBJECTID": 69,
    "FOLIO": 3050210490010,
    "NAME": "Jackson Memorial Hospital ",
    "BRANCH": "Jackson South Medical Center",
    "ADDRESS": "9333 SW 152nd St",
    "UNIT": null,
    "CITY": "Miami",
    "ZIPCODE": 33157,
    "PHONE": "305-251-2500",
    "SRVCNOTE": "Physicians and Healthcare of Specialties and subspecialties",
    "LAT": 25.62953,
    "LON": -80.34477,
    "POINT_X": 872051.536739327,
    "POINT_Y": 471577.317714155,
    "CREATED BY": "T0140179",
    "CREATED DATE": "6/5/2019 5:14:45 PM",
    "MODIFIED BY": "T0140179",
    "MODIFIED DATE": "6/5/2019 5:18:44 PM",
    "GlobalID": "85560859-cbc9-4ed2-a614-4fdfe0024254",
    "x": -8943938.8698,
    "y": 2953268.678
  },
  {
    "OBJECTID": 70,
    "FOLIO": 3059140530160,
    "NAME": "Community Health of South Dade",
    "BRANCH": "West Kendall Health Center",
    "ADDRESS": "13540 SW 135th Ave",
    "UNIT": null,
    "CITY": "Miami-Dade",
    "ZIPCODE": 33186,
    "PHONE": "786-231-0800",
    "SRVCNOTE": "Primary Care, Dental, Labs,Free Prescription-Transportation",
    "LAT": 25.64179,
    "LON": -80.4134,
    "POINT_X": 849420.049193997,
    "POINT_Y": 475928.458618157,
    "CREATED BY": "ABREUI",
    "CREATED DATE": "5/11/2018 3:22:27 PM",
    "MODIFIED BY": "T0140179",
    "MODIFIED DATE": "6/18/2019 5:15:05 PM",
    "GlobalID": "b0c5a1a4-b39f-4d7d-99a4-908f494773b2",
    "x": -8951578.4366,
    "y": 2954782.8923
  },
  {
    "OBJECTID": 71,
    "FOLIO": 1078130550050,
    "NAME": "Community Health of South Dade",
    "BRANCH": "Martin Luther King Jr. Clinica Campesina",
    "ADDRESS": "810 W Mowry Dr",
    "UNIT": null,
    "CITY": "Homestead",
    "ZIPCODE": 33030,
    "PHONE": "305-248-4334",
    "SRVCNOTE": "Urgent Care, Walk-In Medical Services",
    "LAT": 25.46916,
    "LON": -80.48749,
    "POINT_X": 825255.052248497,
    "POINT_Y": 413085.02164124,
    "CREATED BY": "ABREUI",
    "CREATED DATE": "5/11/2018 3:22:27 PM",
    "MODIFIED BY": "E327883",
    "MODIFIED DATE": "5/24/2022 3:37:17 PM",
    "GlobalID": "101428f9-9fb0-4f47-b293-9735ef4f3ff2",
    "x": -8959825.4921,
    "y": 2933481.5189
  },
  {
    "OBJECTID": 72,
    "FOLIO": 940360230060,
    "NAME": "Community Health of South Dade",
    "BRANCH": "South Miami Health Center",
    "ADDRESS": "6350 Sunset Dr",
    "UNIT": null,
    "CITY": "South Miami",
    "ZIPCODE": 33143,
    "PHONE": "786-293-5500",
    "SRVCNOTE": "Primary Care, Pediatrics, OB/GYN, Behavioral Health,Lab",
    "LAT": 25.70363,
    "LON": -80.29739,
    "POINT_X": 887517.624901578,
    "POINT_Y": 498592.093736991,
    "CREATED BY": "ABREUI",
    "CREATED DATE": "5/11/2018 3:22:27 PM",
    "MODIFIED BY": "T0140179",
    "MODIFIED DATE": "6/18/2019 5:15:07 PM",
    "GlobalID": "68f43112-7cbe-4a3e-9d8c-eea51bdbbb19",
    "x": -8938665.2237,
    "y": 2962421.3724
  },
  {
    "OBJECTID": 73,
    "FOLIO": 3060170030010,
    "NAME": "Community Health of South Dade",
    "BRANCH": "Doris Ison South Dade Health Center",
    "ADDRESS": "10300 SW 216th St",
    "UNIT": null,
    "CITY": "Miami-Dade",
    "ZIPCODE": 33190,
    "PHONE": "305-253-5100",
    "SRVCNOTE": "Primary Care, Urgent Care, Pharmacy",
    "LAT": 25.56558,
    "LON": -80.35766,
    "POINT_X": 867915.873094663,
    "POINT_Y": 448316.348160073,
    "CREATED BY": "ABREUI",
    "CREATED DATE": "5/11/2018 3:22:27 PM",
    "MODIFIED BY": "T0140179",
    "MODIFIED DATE": "6/18/2019 5:15:02 PM",
    "GlobalID": "27dc2f25-b5db-4cfe-acbf-a7d3fdd4cac1",
    "x": -8945374.1668,
    "y": 2945375.8757
  },
  {
    "OBJECTID": 74,
    "FOLIO": 131350760010,
    "NAME": "Jackson Memorial Hospital ",
    "BRANCH": "Jackson Behavioral Health Hospital",
    "ADDRESS": "1695 NW 9th Ave",
    "UNIT": null,
    "CITY": "Miami",
    "ZIPCODE": 33136,
    "PHONE": "305-355-7000",
    "SRVCNOTE": "Full continuum of care for children, adolescents, adults ",
    "LAT": 25.79079,
    "LON": -80.20954,
    "POINT_X": 916256.373526327,
    "POINT_Y": 530435.060890824,
    "CREATED BY": "T0140179",
    "CREATED DATE": "6/5/2019 5:11:14 PM",
    "MODIFIED BY": "T0140179",
    "MODIFIED DATE": "6/5/2019 5:12:38 PM",
    "GlobalID": "60aa9b91-4121-4c55-8781-0795de01b28d",
    "x": -8928885.56469999,
    "y": 2973193.4097
  },
  {
    "OBJECTID": 75,
    "FOLIO": 141050370210,
    "NAME": "Banyan Health Systems",
    "BRANCH": "Adult & Children's Behavioral Health",
    "ADDRESS": "3850 W. Flagler St",
    "UNIT": null,
    "CITY": "Miami",
    "ZIPCODE": 33134,
    "PHONE": "305-774-3300",
    "SRVCNOTE": "Adult & Children's Primary Care Services",
    "LAT": 25.77151,
    "LON": -80.25786,
    "POINT_X": 900395.863214634,
    "POINT_Y": 523335.106886305,
    "CREATED BY": "T0140179",
    "CREATED DATE": "6/19/2019 7:18:38 PM",
    "MODIFIED BY": "T0140179",
    "MODIFIED DATE": "6/19/2019 8:47:41 PM",
    "GlobalID": "62629e14-381b-4e2d-83a9-2237c8311792",
    "x": -8934264.65259999,
    "y": 2970809.9736
  },
  {
    "OBJECTID": 76,
    "FOLIO": 821210040980,
    "NAME": "Jessie Trice Community Health Center",
    "BRANCH": "Youth and Children's Wellness Center",
    "ADDRESS": "490 Opa Locka Blvd",
    "UNIT": " ",
    "CITY": "Opa-Locka",
    "ZIPCODE": 33054,
    "PHONE": "305-681-3916",
    "SRVCNOTE": "Youth and Children's M-F 8:00 am to 6:00 pm",
    "LAT": 25.90202,
    "LON": -80.25124,
    "POINT_X": 902308.061527997,
    "POINT_Y": 570782.833213493,
    "CREATED BY": "ABREUI",
    "CREATED DATE": "5/11/2018 3:22:27 PM",
    "MODIFIED BY": "T0140179",
    "MODIFIED DATE": "6/18/2019 6:06:38 PM",
    "GlobalID": "b8964326-d28c-4b0b-a6d9-bed88be90169",
    "x": -8933526.45579999,
    "y": 2986951.6152
  },
  {
    "OBJECTID": 77,
    "FOLIO": 3040080420010,
    "NAME": "Borinquen Health Care Center",
    "BRANCH": "West Dade / Sweetwater",
    "ADDRESS": "10528 SW 8th St",
    "UNIT": " ",
    "CITY": "Miami-Dade",
    "ZIPCODE": 33174,
    "PHONE": "305-552-1201",
    "SRVCNOTE": "HIV, Pediatrics, Adolescent, OB/GYN, Optical, Dental, Labs",
    "LAT": 25.76081,
    "LON": -80.36661,
    "POINT_X": 864626.556865893,
    "POINT_Y": 519259.241573207,
    "CREATED BY": "ABREUI",
    "CREATED DATE": "5/11/2018 3:22:27 PM",
    "MODIFIED BY": "ABREUI",
    "MODIFIED DATE": "5/11/2018 3:22:27 PM",
    "GlobalID": "03fb88f3-b8cc-4103-9d60-8a5f31d9803c",
    "x": -8946370.17839999,
    "y": 2969487.3269
  },
  {
    "OBJECTID": 78,
    "FOLIO": 141050370210,
    "NAME": "Banyan Health Systems",
    "BRANCH": "Pharmacy",
    "ADDRESS": "3840 W. Flagler St",
    "UNIT": null,
    "CITY": "Miami",
    "ZIPCODE": 33134,
    "PHONE": "305-774-3300",
    "SRVCNOTE": "Pharmacy",
    "LAT": 25.77157,
    "LON": -80.25769,
    "POINT_X": 900452.971734244,
    "POINT_Y": 523356.010088325,
    "CREATED BY": "T0140179",
    "CREATED DATE": "6/19/2019 7:23:51 PM",
    "MODIFIED BY": "E327883",
    "MODIFIED DATE": "5/24/2022 1:35:51 PM",
    "GlobalID": "1c33f66a-7a59-4bdd-8cbb-a3516bc16650",
    "x": -8934245.29619999,
    "y": 2970816.9732
  },
  {
    "OBJECTID": 79,
    "FOLIO": 420270010620,
    "NAME": "Citrus Health Network",
    "BRANCH": "Citrus Maternal & Child Health Center",
    "ADDRESS": "7150 W 20th Ave",
    "UNIT": "Suite 201",
    "CITY": "Hialeah",
    "ZIPCODE": 33016,
    "PHONE": "786-209-2111",
    "SRVCNOTE": "Women's Health & OB/GYN",
    "LAT": 25.88691,
    "LON": -80.32499,
    "POINT_X": 878088.113614433,
    "POINT_Y": 565156.816271961,
    "CREATED BY": "ABREUI",
    "CREATED DATE": "5/11/2018 3:22:27 PM",
    "MODIFIED BY": "ABREUI",
    "MODIFIED DATE": "5/11/2018 3:22:27 PM",
    "GlobalID": "f3ffa5b2-d648-4694-8b80-4fb7838cffb4",
    "x": -8941737.55399999,
    "y": 2985081.0254
  },
  {
    "OBJECTID": 80,
    "FOLIO": 622300150020,
    "NAME": "Borinquen Health Care Center North Miami",
    "BRANCH": "North Miami",
    "ADDRESS": "708 NE 125th St",
    "UNIT": "Suite 103",
    "CITY": "North Miami",
    "ZIPCODE": 33161,
    "PHONE": "305-433-8815",
    "SRVCNOTE": "HIV, Pediatrics, Adolescent, OB/GYN, Optical, Dental, Labs",
    "LAT": 25.89017,
    "LON": -80.18404,
    "POINT_X": 924423.762047161,
    "POINT_Y": 566608.16111666,
    "CREATED BY": "ABREUI",
    "CREATED DATE": "5/11/2018 3:22:27 PM",
    "MODIFIED BY": "T0140179",
    "MODIFIED DATE": "6/6/2019 12:39:27 PM",
    "GlobalID": "f57d3140-cc4f-494b-afe4-f20de1cfe162",
    "x": -8926046.63059999,
    "y": 2985485.4814
  },
  {
    "OBJECTID": 81,
    "FOLIO": 3031160095970,
    "NAME": "Jessie Trice Community Health Center",
    "BRANCH": "Jefferson Reeves House",
    "ADDRESS": "2985 NW 54th St",
    "UNIT": " ",
    "CITY": "Miami-Dade",
    "ZIPCODE": 33142,
    "PHONE": "305-637-6498",
    "SRVCNOTE": "Women's Substance Abuse Residential Program ",
    "LAT": 25.82412,
    "LON": -80.24446,
    "POINT_X": 904696.249993078,
    "POINT_Y": 542479.062721409,
    "CREATED BY": "ABREUI",
    "CREATED DATE": "5/11/2018 3:22:27 PM",
    "MODIFIED BY": "E327883",
    "MODIFIED DATE": "6/6/2022 12:29:35 PM",
    "GlobalID": "4f3781a1-6c8d-4a9b-a695-0cd9e47ed794",
    "x": -8932772.91549999,
    "y": 2977313.7707
  },
  {
    "OBJECTID": 82,
    "FOLIO": 3421150000010,
    "NAME": "Jackson Memorial Hospital ",
    "BRANCH": "North Dade Health Center",
    "ADDRESS": "16555 NW 25th Ave",
    "UNIT": " ",
    "CITY": "Miami Gardens",
    "ZIPCODE": 33054,
    "PHONE": "786-466-1500",
    "SRVCNOTE": "Health Clinic, Pharmacy",
    "LAT": 25.92504,
    "LON": -80.24101,
    "POINT_X": 905620.041448068,
    "POINT_Y": 579167.691421002,
    "CREATED BY": "ABREUI",
    "CREATED DATE": "5/11/2018 3:22:27 PM",
    "MODIFIED BY": "ABREUI",
    "MODIFIED DATE": "5/11/2018 3:22:27 PM",
    "GlobalID": "f5295841-70b2-4066-a778-68948c6c691f",
    "x": -8932388.5368,
    "y": 2989800.116
  },
  {
    "OBJECTID": 83,
    "FOLIO": 131350610010,
    "NAME": "Jackson Memorial Hospital ",
    "BRANCH": "Jackson Multispecialty Center-Health District",
    "ADDRESS": "1801 NW 9th Ave",
    "UNIT": "2nd Floor",
    "CITY": "Miami",
    "ZIPCODE": 33136,
    "PHONE": "786-466-8490",
    "SRVCNOTE": "Primary Care Medicine, Cardiology and Neurology",
    "LAT": 25.79276,
    "LON": -80.20969,
    "POINT_X": 916202.210904997,
    "POINT_Y": 531149.892466404,
    "CREATED BY": "T0140179",
    "CREATED DATE": "6/5/2019 8:06:42 PM",
    "MODIFIED BY": "T0140179",
    "MODIFIED DATE": "6/21/2019 8:20:15 PM",
    "GlobalID": "8f6e935c-c341-46c8-bbec-12a6bfd84112",
    "x": -8928902.4362,
    "y": 2973436.6669
  },
  {
    "OBJECTID": 84,
    "FOLIO": 430021990010,
    "NAME": "Citrus Health Network",
    "BRANCH": "Citrus Main Center",
    "ADDRESS": "4175 W 20th Ave",
    "UNIT": "  ",
    "CITY": "Hialeah",
    "ZIPCODE": 33012,
    "PHONE": "305-825-0300",
    "SRVCNOTE": "Psychiatry & Mental Health Services for Adults & Children",
    "LAT": 25.85976,
    "LON": -80.32164,
    "POINT_X": 879241.312463503,
    "POINT_Y": 555295.062406778,
    "CREATED BY": "ABREUI",
    "CREATED DATE": "5/11/2018 3:22:27 PM",
    "MODIFIED BY": "ABREUI",
    "MODIFIED DATE": "5/11/2018 3:22:27 PM",
    "GlobalID": "d4c73905-fc4d-45c6-80a6-383c873378d8",
    "x": -8941364.36,
    "y": 2981722.212
  },
  {
    "OBJECTID": 85,
    "FOLIO": 132070900012,
    "NAME": "Borinquen Health Care Center",
    "BRANCH": "Carrie Meek-Villa Patricia Towers",
    "ADDRESS": "7801 NE 2nd Ave",
    "UNIT": " ",
    "CITY": "Miami",
    "ZIPCODE": 33138,
    "PHONE": "786-235-7020",
    "SRVCNOTE": "HIV, Pediatrics, Adolescent, OB/GYN, Optical, Dental, Labs",
    "LAT": 25.84666,
    "LON": -80.1925,
    "POINT_X": 921741.501431085,
    "POINT_Y": 550773.417858563,
    "CREATED BY": "ABREUI",
    "CREATED DATE": "5/11/2018 3:22:27 PM",
    "MODIFIED BY": "ABREUI",
    "MODIFIED DATE": "5/11/2018 3:22:27 PM",
    "GlobalID": "094d9a77-b10a-4464-9104-81d37cd7475b",
    "x": -8926987.7471,
    "y": 2980101.6067
  },
  {
    "OBJECTID": 91,
    "FOLIO": 131351000010,
    "NAME": "Miami Dade County Health Department",
    "BRANCH": "Refugee Health Program",
    "ADDRESS": "1350 NW 14th St",
    "UNIT": null,
    "CITY": "Miami",
    "ZIPCODE": 33125,
    "PHONE": "305-643-7300",
    "SRVCNOTE": "Health Center",
    "LAT": 25.78706,
    "LON": -80.21769,
    "POINT_X": 913584.119620304,
    "POINT_Y": 529063.016755193,
    "CREATED BY": "E327883",
    "CREATED DATE": "6/3/2022 12:14:13 PM",
    "MODIFIED BY": "E327883",
    "MODIFIED DATE": "6/3/2022 12:23:20 PM",
    "GlobalID": "e67e8bf7-3f9a-4cce-a730-01f31646db86",
    "x": -8929792.3312,
    "y": 2972732.1535
  },
  {
    "OBJECTID": 491,
    "FOLIO": 132070200380,
    "NAME": "Florida Department of Health",
    "BRANCH": "Little Haiti Health Center",
    "ADDRESS": "300 NE 80th Ter",
    "UNIT": null,
    "CITY": "Miami",
    "ZIPCODE": 33138,
    "PHONE": "305-795-2100",
    "SRVCNOTE": "Health Center",
    "LAT": 25.84884,
    "LON": -80.19075,
    "POINT_X": 922313.349630613,
    "POINT_Y": 551570.566447467,
    "CREATED BY": "E327883",
    "CREATED DATE": "6/6/2022 11:22:25 AM",
    "MODIFIED BY": "E327883",
    "MODIFIED DATE": "6/6/2022 11:30:14 AM",
    "GlobalID": "953d1476-7eac-4ad0-a222-de59692aef52",
    "x": -8926792.5427,
    "y": 2980371.6809
  },
  {
    "OBJECTID": 492,
    "FOLIO": 3421100014050,
    "NAME": "Florida Department of Health",
    "BRANCH": "Environmental Health & Engineering",
    "ADDRESS": "1725 NW 167th St",
    "UNIT": null,
    "CITY": "Miami",
    "ZIPCODE": 33056,
    "PHONE": "305-623-3500",
    "SRVCNOTE": "Health Center",
    "LAT": 25.92758,
    "LON": -80.22941,
    "POINT_X": 909427.712691389,
    "POINT_Y": 580115.619016938,
    "CREATED BY": "E327883",
    "CREATED DATE": "6/6/2022 11:39:01 AM",
    "MODIFIED BY": "E327883",
    "MODIFIED DATE": "6/6/2022 11:43:38 AM",
    "GlobalID": "dd75e7b6-9182-41ac-b895-46b2f614b3df",
    "x": -8931097.0725,
    "y": 2990115.3448
  },
  {
    "OBJECTID": 493,
    "FOLIO": 1678240150210,
    "NAME": "Florida Department of Health",
    "BRANCH": "Florida City Clinic",
    "ADDRESS": "1600 NW 6th Ct",
    "UNIT": "Bldg. B",
    "CITY": "Homestead",
    "ZIPCODE": 33034,
    "PHONE": "305-242-2443",
    "SRVCNOTE": "Health Center",
    "LAT": 25.4616,
    "LON": -80.48606,
    "POINT_X": 825738.006743744,
    "POINT_Y": 410339.890189148,
    "CREATED BY": "E327883",
    "CREATED DATE": "6/6/2022 11:49:14 AM",
    "MODIFIED BY": "E327883",
    "MODIFIED DATE": "6/6/2022 12:08:46 PM",
    "GlobalID": "55e4e005-1ce1-4834-9c42-094ea4fafa78",
    "x": -8959666.1119,
    "y": 2932549.5995
  },
  {
    "OBJECTID": 494,
    "FOLIO": 3049120680020,
    "NAME": "Florida Department of Health",
    "BRANCH": "West Dade Clinic",
    "ADDRESS": "11865 SW 26th St  ",
    "UNIT": "Suite J2",
    "CITY": "Miami",
    "ZIPCODE": 33175,
    "PHONE": "305-575-3800",
    "SRVCNOTE": "Health Center",
    "LAT": 25.74785,
    "LON": -80.38654,
    "POINT_X": 858088.307547346,
    "POINT_Y": 514517.743764997,
    "CREATED BY": "E327883",
    "CREATED DATE": "6/6/2022 12:07:11 PM",
    "MODIFIED BY": "E327883",
    "MODIFIED DATE": "6/6/2022 12:09:25 PM",
    "GlobalID": "0d241cc0-871c-4020-8bba-0892fbbb4bbe",
    "x": -8948589.0165,
    "y": 2967885.4826
  },
  {
    "OBJECTID": 495,
    "FOLIO": 132300180100,
    "NAME": "Borinquen Health Center",
    "BRANCH": "Wynwood Behavior & Specialty Health Center",
    "ADDRESS": "2691 NE 2nd Ave",
    "UNIT": null,
    "CITY": "Miami",
    "ZIPCODE": 33137,
    "PHONE": "305-576-1599",
    "SRVCNOTE": "Health Center",
    "LAT": 25.80266,
    "LON": -80.19089,
    "POINT_X": 922371.798631411,
    "POINT_Y": 534786.685061574,
    "CREATED BY": "E327883",
    "CREATED DATE": "6/6/2022 12:35:28 PM",
    "MODIFIED BY": "E327883",
    "MODIFIED DATE": "6/6/2022 12:39:49 PM",
    "GlobalID": "d320c0e9-f013-42ad-830c-3e2083deb8c5",
    "x": -8926807.7096,
    "y": 2974661.0145
  },
  {
    "OBJECTID": 891,
    "FOLIO": 131351000010,
    "NAME": "Miami Dade County Health Department",
    "BRANCH": "Health District Center",
    "ADDRESS": "1350 NW 14th St",
    "UNIT": null,
    "CITY": "Miami",
    "ZIPCODE": 33125,
    "PHONE": "305-575-3800",
    "SRVCNOTE": "Health Center",
    "LAT": 25.78706,
    "LON": -80.21769,
    "POINT_X": 913584.119684499,
    "POINT_Y": 529063.016718909,
    "CREATED BY": "E327883",
    "CREATED DATE": "6/9/2022 12:40:55 PM",
    "MODIFIED BY": "E327883",
    "MODIFIED DATE": "6/9/2022 12:42:34 PM",
    "GlobalID": "e3b49dea-5f15-46be-a9bc-7382f19ff0fd",
    "x": -8929792.3312,
    "y": 2972732.1535
  }
]